$GPGGA,081142.00,3116.6615400,N,12132.1208250,E,5,17,1.2,3.006,M,11.40,M,02,2817*56
$GPGGA,081143.00,3116.6615194,N,12132.1208098,E,5,17,1.2,3.004,M,11.40,M,01,2817*58
$GPGGA,081144.00,3116.6615271,N,12132.1207942,E,5,17,1.2,2.981,M,11.40,M,01,2817*53
$GPGGA,081145.00,3116.6615255,N,12132.1207930,E,5,16,1.2,2.982,M,11.40,M,02,2817*50
$GPGGA,081146.00,3116.6615247,N,12132.1207998,E,5,17,1.2,2.998,M,11.40,M,03,2817*59$GPGGA,081147.00,3116.6615415,N,12132.1207934,E,5,17,1.2,3.046,M,11.40,M,02,2817*55$GPGGA,081148.00,3116.6615467,N,12132.1207845,E,5,17,1.2,3.045,M,11.40,M,01,2817*58
$GPGGA,081149.00,3116.6615566,N,12132.1207812,E,5,17,1.2,3.071,M,11.40,M,01,2817*5C
$GPGGA,081150.00,3116.6615543,N,12132.1207805,E,5,17,1.2,3.060,M,11.40,M,02,2817*56
$GPGGA,081151.00,3116.6615630,N,12132.1207626,E,5,16,1.4,3.045,M,11.40,M,01,2817*5C$GPGGA,081152.00,3116.6615684,N,12132.1207499,E,5,16,1.4,3.035,M,11.40,M,01,2817*51
$GPGGA,081153.00,3116.6615713,N,12132.1207422,E,5,16,1.4,3.046,M,11.40,M,01,2817*5B
$GPGGA,081154.00,3116.6615702,N,12132.1207357,E,5,17,1.4,3.043,M,11.40,M,01,2817*5D
$GPGGA,081155.00,3116.6615711,N,12132.1207280,E,5,18,1.2,3.033,M,11.40,M,01,2817*5B
$GPGGA,081156.00,3116.6615718,N,12132.1207354,E,5,18,1.2,3.033,M,11.40,M,01,2817*59
$GPGGA,081157.00,3116.6615719,N,12132.1207349,E,5,17,1.2,3.025,M,11.40,M,01,2817*5D
$GPGGA,081158.00,3116.6615715,N,12132.1207286,E,5,16,1.2,3.023,M,11.40,M,02,2817*58
$GPGGA,081159.00,3116.6615607,N,12132.1207267,E,5,17,1.2,3.025,M,11.40,M,01,2817*50
$GPGGA,081200.00,3116.6614009,N,12132.1208166,E,5,17,1.2,3.000,M,11.40,M,01,2817*5C
$GPGGA,081201.00,3116.6612619,N,12132.1209051,E,5,17,1.2,2.994,M,11.40,M,02,2817*5E$GPGGA,081202.00,3116.6610583,N,12132.1210728,E,5,17,1.2,3.033,M,11.40,M,03,2817*5A
$GPGGA,081203.00,3116.6608464,N,12132.1212708,E,5,17,1.3,3.048,M,11.40,M,01,2817*55
$GPGGA,081204.00,3116.6606562,N,12132.1214388,E,5,16,1.3,3.051,M,11.40,M,02,2817*5B
$GPGGA,081205.00,3116.6604610,N,12132.1216182,E,5,15,1.3,3.065,M,11.40,M,02,2817*50$GPGGA,081206.00,3116.6602930,N,12132.1217855,E,5,14,1.3,3.129,M,11.40,M,01,2817*51
$GPGGA,081207.00,3116.6600443,N,12132.1219722,E,5,15,1.2,3.144,M,11.40,M,01,2817*51$GPGGA,081208.00,3116.6597294,N,12132.1221697,E,5,14,1.5,3.171,M,11.40,M,01,2817*5B
$GPGGA,081209.00,3116.6593520,N,12132.1224065,E,5,13,1.8,3.171,M,11.40,M,01,2817*52
$GPGGA,081210.00,3116.6589668,N,12132.1226814,E,5,15,1.6,3.173,M,11.40,M,01,2817*58
$GPGGA,081211.00,3116.6585340,N,12132.1229738,E,5,14,1.2,3.057,M,11.40,M,01,2817*56
$GPGGA,081212.00,3116.6580973,N,12132.1233073,E,5,15,1.2,3.040,M,11.40,M,01,2817*5E
$GPGGA,081213.00,3116.6576824,N,12132.1236368,E,5,15,1.2,3.062,M,11.40,M,01,2817*59
$GPGGA,081214.00,3116.6572639,N,12132.1239274,E,5,14,1.4,3.137,M,11.40,M,01,2817*5D
$GPGGA,081215.00,3116.6568771,N,12132.1242196,E,5,15,1.5,3.172,M,11.40,M,01,2817*58$GPGGA,081216.00,3116.6565512,N,12132.1244725,E,5,14,1.9,3.127,M,11.40,M,01,2817*54
$GPGGA,081217.00,3116.6562095,N,12132.1247261,E,5,14,1.4,3.163,M,11.40,M,01,2817*53
$GPGGA,081218.00,3116.6558677,N,12132.1249994,E,5,13,1.9,3.188,M,11.40,M,01,2817*5F$GPGGA,081219.00,3116.6555556,N,12132.1252537,E,5,12,2.5,3.219,M,11.40,M,01,2817*59$GPGGA,081220.00,3116.6552744,N,12132.1254983,E,5,13,1.9,3.209,M,11.40,M,01,2817*5F
$GPGGA,081221.00,3116.6549577,N,12132.1257397,E,5,11,1.6,3.210,M,11.40,M,01,2817*5F
$GPGGA,081222.00,3116.6545603,N,12132.1260202,E,5,13,1.4,3.180,M,11.40,M,01,2817*53
$GPGGA,081223.00,3116.6541647,N,12132.1263338,E,5,12,2.6,3.193,M,11.40,M,01,2817*5F
$GPGGA,081224.00,3116.6537607,N,12132.1266496,E,5,12,2.6,3.184,M,11.40,M,01,2817*5D$GPGGA,081225.00,3116.6533760,N,12132.1269518,E,5,11,2.6,3.230,M,11.40,M,02,2817*5C
$GPGGA,081226.00,3116.6529690,N,12132.1272494,E,5,12,1.4,3.216,M,11.40,M,02,2817*53$GPGGA,081227.00,3116.6525205,N,12132.1275449,E,5,11,2.6,3.186,M,11.40,M,02,2817*59
$GPGGA,081228.00,3116.6520893,N,12132.1278197,E,5,09,2.6,3.199,M,11.40,M,01,2817*59
$GPGGA,081229.00,3116.6516655,N,12132.1281150,E,5,10,1.6,3.230,M,11.40,M,01,2817*5F
$GPGGA,081230.00,3116.6512289,N,12132.1284508,E,5,12,2.6,3.216,M,11.40,M,01,2817*5F
$GPGGA,081231.00,3116.6507558,N,12132.1287544,E,5,13,2.6,3.186,M,11.40,M,01,2817*51
$GPGGA,081232.00,3116.6503128,N,12132.1290468,E,5,14,2.6,3.178,M,11.40,M,01,2817*5A
$GPGGA,081233.00,3116.6498985,N,12132.1293715,E,5,13,2.6,3.276,M,11.40,M,01,2817*57$GPGGA,081234.00,3116.6495184,N,12132.1296493,E,5,13,2.6,3.292,M,11.40,M,01,2817*56
$GPGGA,081235.00,3116.6491804,N,12132.1299036,E,5,12,3.4,3.323,M,11.40,M,01,2817*5F
$GPGGA,081236.00,3116.6488057,N,12132.1301887,E,5,13,3.4,3.327,M,11.40,M,01,2817*5D
$GPGGA,081237.00,3116.6484029,N,12132.1304814,E,5,13,2.6,3.384,M,11.40,M,01,2817*5C$GPGGA,081238.00,3116.6479537,N,12132.1308039,E,5,14,2.6,3.415,M,11.40,M,01,2817*58
$GPGGA,081239.00,3116.6475043,N,12132.1311563,E,5,15,2.6,3.382,M,11.40,M,01,2817*59
$GPGGA,081240.00,3116.6470467,N,12132.1315200,E,5,15,2.6,3.383,M,11.40,M,01,2817*57
$GPGGA,081241.00,3116.6465864,N,12132.1318867,E,5,16,2.6,3.385,M,11.40,M,02,2817*5D
$GPGGA,081242.00,3116.6461026,N,12132.1322467,E,5,14,2.6,3.363,M,11.40,M,02,2817*5B
$GPGGA,081243.00,3116.6456083,N,12132.1326046,E,5,13,2.6,3.306,M,11.40,M,01,2817*55$GPGGA,081244.00,3116.6451186,N,12132.1329265,E,5,13,2.6,3.303,M,11.40,M,01,2817*58
$GPGGA,081245.00,3116.6446622,N,12132.1332702,E,5,13,1.2,3.247,M,11.40,M,01,2817*5E
$GPGGA,081246.00,3116.6442055,N,12132.1336047,E,5,13,2.6,3.213,M,11.40,M,01,2817*5B
$GPGGA,081247.00,3116.6437784,N,12132.1339302,E,5,11,2.6,3.196,M,11.40,M,01,2817*52
$GPGGA,081248.00,3116.6433460,N,12132.1342541,E,5,12,3.9,3.220,M,11.40,M,01,2817*5E
$GPGGA,081249.00,3116.6429158,N,12132.1345946,E,5,11,3.9,3.265,M,11.40,M,01,2817*54$GPGGA,081250.00,3116.6424774,N,12132.1349382,E,5,12,3.9,3.233,M,11.40,M,01,2817*57$GPGGA,081251.00,3116.6420505,N,12132.1352461,E,5,12,1.9,3.209,M,11.40,M,01,2817*5D
$GPGGA,081252.00,3116.6416397,N,12132.1354483,E,5,13,1.9,3.222,M,11.40,M,01,2817*54
$GPGGA,081253.00,3116.6412754,N,12132.1356385,E,5,14,1.6,3.200,M,11.40,M,01,2817*51
$GPGGA,081254.00,3116.6408460,N,12132.1358308,E,5,14,1.6,3.207,M,11.40,M,01,2817*55
$GPGGA,081255.00,3116.6403699,N,12132.1360461,E,5,11,1.6,3.202,M,11.40,M,01,2817*58
$GPGGA,081256.00,3116.6399244,N,12132.1363061,E,5,11,1.8,3.214,M,11.40,M,01,2817*55
$GPGGA,081257.00,3116.6394723,N,12132.1366086,E,5,12,2.0,3.240,M,11.40,M,01,2817*58
$GPGGA,081258.00,3116.6390315,N,12132.1369171,E,5,13,1.8,3.242,M,11.40,M,01,2817*5C
$GPGGA,081259.00,3116.6385767,N,12132.1372109,E,5,13,1.8,3.271,M,11.40,M,01,2817*5D
$GPGGA,081300.00,3116.6381104,N,12132.1375219,E,5,11,1.7,3.264,M,11.40,M,01,2817*5B
$GPGGA,081301.00,3116.6377593,N,12132.1378029,E,5,14,1.5,3.274,M,11.40,M,01,2817*53
$GPGGA,081302.00,3116.6374646,N,12132.1380668,E,5,13,1.3,3.298,M,11.40,M,01,2817*5F
$GPGGA,081303.00,3116.6371974,N,12132.1383384,E,5,13,1.3,3.327,M,11.40,M,01,2817*54
$GPGGA,081304.00,3116.6369538,N,12132.1385686,E,5,12,1.5,3.321,M,11.40,M,02,2817*5D
$GPGGA,081305.00,3116.6366654,N,12132.1387966,E,5,13,1.5,3.464,M,11.40,M,02,2817*5E
$GPGGA,081306.00,3116.6362753,N,12132.1390116,E,5,13,1.2,3.467,M,11.40,M,01,2817*51
$GPGGA,081307.00,3116.6358446,N,12132.1392059,E,5,13,1.2,3.435,M,11.40,M,01,2817*51
$GPGGA,081308.00,3116.6353440,N,12132.1393484,E,5,10,1.8,3.415,M,11.40,M,01,2817*5D
$GPGGA,081309.00,3116.6348803,N,12132.1394432,E,5,13,1.8,3.381,M,11.40,M,01,2817*5E
$GPGGA,081310.00,3116.6344807,N,12132.1394782,E,5,14,1.2,3.402,M,11.40,M,02,2817*54
$GPGGA,081311.00,3116.6341174,N,12132.1394097,E,5,14,1.2,3.329,M,11.40,M,01,2817*53
$GPGGA,081312.00,3116.6336366,N,12132.1393634,E,5,16,1.2,3.305,M,11.40,M,01,2817*55
$GPGGA,081313.00,3116.6332441,N,12132.1392020,E,5,13,1.2,3.296,M,11.40,M,01,2817*5E$GPGGA,081314.00,3116.6327979,N,12132.1390640,E,5,13,1.4,3.246,M,11.40,M,01,2817*52
$GPGGA,081315.00,3116.6323244,N,12132.1389493,E,5,16,1.3,3.266,M,11.40,M,01,2817*56
$GPGGA,081316.00,3116.6318857,N,12132.1389643,E,5,16,1.2,3.244,M,11.40,M,01,2817*5B
$GPGGA,081317.00,3116.6314568,N,12132.1390351,E,5,14,1.3,3.220,M,11.40,M,01,2817*58
$GPGGA,081318.00,3116.6310406,N,12132.1391141,E,5,14,1.3,3.213,M,11.40,M,01,2817*58
$GPGGA,081319.00,3116.6305953,N,12132.1392095,E,5,13,1.3,3.242,M,11.40,M,01,2817*58
$GPGGA,081320.00,3116.6301613,N,12132.1393137,E,5,16,1.2,3.247,M,11.40,M,01,2817*54
$GPGGA,081321.00,3116.6296868,N,12132.1394233,E,5,17,1.2,3.236,M,11.40,M,02,2817*5C
$GPGGA,081322.00,3116.6292041,N,12132.1395965,E,5,17,1.2,3.226,M,11.40,M,01,2817*53
$GPGGA,081323.00,3116.6288706,N,12132.1398251,E,5,16,1.4,3.223,M,11.40,M,01,2817*5E
$GPGGA,081324.00,3116.6286059,N,12132.1400547,E,5,14,1.4,3.236,M,11.40,M,02,2817*59
$GPGGA,081325.00,3116.6282992,N,12132.1402832,E,5,14,1.4,3.221,M,11.40,M,01,2817*5A
$GPGGA,081326.00,3116.6279078,N,12132.1404450,E,5,14,1.2,3.192,M,11.40,M,01,2817*53
$GPGGA,081327.00,3116.6275016,N,12132.1405875,E,5,13,1.4,3.196,M,11.40,M,01,2817*59
$GPGGA,081328.00,3116.6270806,N,12132.1407780,E,5,14,1.4,3.224,M,11.40,M,01,2817*50
$GPGGA,081329.00,3116.6266711,N,12132.1410794,E,5,14,1.4,3.288,M,11.40,M,01,2817*5A
$GPGGA,081330.00,3116.6262479,N,12132.1414602,E,5,14,1.4,3.204,M,11.40,M,01,2817*55
$GPGGA,081331.00,3116.6258816,N,12132.1419872,E,5,12,1.7,3.240,M,11.40,M,01,2817*59
$GPGGA,081332.00,3116.6256595,N,12132.1424380,E,5,09,1.7,3.016,M,11.40,M,01,2817*51$GPGGA,081333.00,3116.6256328,N,12132.1430630,E,5,10,1.7,3.091,M,11.40,M,01,2817*5C
$GPGGA,081334.00,3116.6257388,N,12132.1435563,E,5,09,2.0,2.944,M,11.40,M,01,2817*5C
$GPGGA,081335.00,3116.6259608,N,12132.1440684,E,5,09,7.7,2.887,M,11.40,M,01,2817*5A
$GPGGA,081336.00,3116.6261963,N,12132.1445747,E,5,11,1.8,2.868,M,11.40,M,01,2817*5A
$GPGGA,081337.00,3116.6264302,N,12132.1450279,E,5,10,1.8,2.856,M,11.40,M,01,2817*53
$GPGGA,081338.00,3116.6266717,N,12132.1454778,E,5,10,2.0,2.875,M,11.40,M,01,2817*54
$GPGGA,081339.00,3116.6269838,N,12132.1460060,E,5,12,1.2,3.011,M,11.40,M,01,2817*59
$GPGGA,081340.00,3116.6272740,N,12132.1465324,E,5,12,1.6,3.044,M,11.40,M,01,2817*5F
$GPGGA,081341.00,3116.6275433,N,12132.1470476,E,5,12,1.6,3.007,M,11.40,M,01,2817*5D
$GPGGA,081342.00,3116.6278163,N,12132.1475062,E,5,11,1.6,3.008,M,11.40,M,01,2817*5B
$GPGGA,081343.00,3116.6280783,N,12132.1480153,E,5,12,1.6,3.004,M,11.40,M,01,2817*53
$GPGGA,081344.00,3116.6282876,N,12132.1484982,E,5,11,1.6,2.972,M,11.40,M,01,2817*59
$GPGGA,081345.00,3116.6284556,N,12132.1488726,E,5,10,1.2,2.933,M,11.40,M,01,2817*5D
$GPGGA,081346.00,3116.6286467,N,12132.1492323,E,5,10,1.5,3.030,M,11.40,M,01,2817*59
$GPGGA,081347.00,3116.6288169,N,12132.1495861,E,5,12,1.4,3.007,M,11.40,M,01,2817*50
$GPGGA,081348.00,3116.6290149,N,12132.1500135,E,5,10,1.4,3.015,M,11.40,M,01,2817*50
$GPGGA,081349.00,3116.6293040,N,12132.1504551,E,5,12,1.3,3.029,M,11.40,M,01,2817*52
$GPGGA,081350.00,3116.6296036,N,12132.1508836,E,5,12,1.2,3.089,M,11.40,M,01,2817*55
$GPGGA,081351.00,3116.6298933,N,12132.1513904,E,5,13,1.8,3.061,M,11.40,M,01,2817*51
$GPGGA,081352.00,3116.6301757,N,12132.1519547,E,5,14,1.4,3.085,M,11.40,M,01,2817*5F
$GPGGA,081353.00,3116.6304884,N,12132.1524766,E,5,14,1.6,3.058,M,11.40,M,02,2817*54
$GPGGA,081354.00,3116.6308181,N,12132.1529110,E,5,13,1.6,3.125,M,11.40,M,01,2817*56
$GPGGA,081355.00,3116.6311607,N,12132.1532203,E,5,13,1.6,3.069,M,11.40,M,01,2817*54
$GPGGA,081356.00,3116.6315563,N,12132.1534118,E,5,09,1.6,3.115,M,11.40,M,01,2817*5C
$GPGGA,081357.00,3116.6320425,N,12132.1533878,E,5,09,2.1,3.210,M,11.40,M,01,2817*52
$GPGGA,081358.00,3116.6323977,N,12132.1532465,E,5,11,1.4,3.088,M,11.40,M,01,2817*59
$GPGGA,081359.00,3116.6328062,N,12132.1530353,E,5,13,2.2,3.055,M,11.40,M,01,2817*59
$GPGGA,081400.00,3116.6332860,N,12132.1527388,E,5,14,1.4,3.134,M,11.40,M,01,2817*57
$GPGGA,081401.00,3116.6337977,N,12132.1523686,E,5,15,1.3,3.110,M,11.40,M,01,2817*5B
$GPGGA,081402.00,3116.6342824,N,12132.1519531,E,5,16,1.3,3.098,M,11.40,M,01,2817*59
$GPGGA,081403.00,3116.6347135,N,12132.1514918,E,5,17,1.2,3.102,M,11.40,M,01,2817*5C
$GPGGA,081404.00,3116.6350595,N,12132.1509648,E,5,16,1.3,3.096,M,11.40,M,01,2817*59
$GPGGA,081405.00,3116.6353256,N,12132.1504448,E,5,16,1.3,3.114,M,11.40,M,01,2817*57
$GPGGA,081406.00,3116.6355364,N,12132.1499510,E,5,17,1.2,3.075,M,11.40,M,01,2817*5D
$GPGGA,081407.00,3116.6357859,N,12132.1494142,E,5,15,1.2,3.036,M,11.40,M,01,2817*50
$GPGGA,081408.00,3116.6360369,N,12132.1489193,E,5,15,1.3,3.074,M,11.40,M,02,2817*57$GPGGA,081409.00,3116.6362483,N,12132.1484728,E,5,14,1.3,3.007,M,11.40,M,02,2817*59
$GPGGA,081410.00,3116.6365193,N,12132.1480560,E,4,15,1.3,2.589,M,11.40,M,01,2817*59
$GPGGA,081411.00,3116.6367654,N,12132.1474815,E,4,14,1.3,2.593,M,11.40,M,02,2817*5B
$GPGGA,081412.00,3116.6369735,N,12132.1468258,E,4,16,1.2,2.572,M,11.40,M,01,2817*51
$GPGGA,081413.00,3116.6371496,N,12132.1462436,E,4,16,1.2,2.545,M,11.40,M,01,2817*53
$GPGGA,081414.00,3116.6373233,N,12132.1457043,E,4,14,1.2,2.533,M,11.40,M,01,2817*5C
$GPGGA,081415.00,3116.6374970,N,12132.1451827,E,4,14,1.2,2.533,M,11.40,M,01,2817*5A
$GPGGA,081416.00,3116.6376579,N,12132.1446795,E,4,15,1.2,2.539,M,11.40,M,01,2817*55
$GPGGA,081417.00,3116.6378734,N,12132.1441515,E,4,14,1.3,2.500,M,11.40,M,01,2817*56
$GPGGA,081418.00,3116.6381161,N,12132.1436471,E,4,14,1.3,2.474,M,11.40,M,01,2817*58
$GPGGA,081419.00,3116.6384054,N,12132.1432201,E,4,13,1.3,2.431,M,11.40,M,01,2817*58
$GPGGA,081420.00,3116.6387460,N,12132.1427724,E,4,13,1.3,2.253,M,11.40,M,01,2817*56
$GPGGA,081421.00,3116.6391107,N,12132.1422792,E,4,13,1.2,2.393,M,11.40,M,01,2817*50
$GPGGA,081422.00,3116.6394278,N,12132.1418929,E,4,12,1.3,2.398,M,11.40,M,02,2817*52
$GPGGA,081423.00,3116.6397470,N,12132.1416077,E,4,12,1.3,2.369,M,11.40,M,01,2817*5F
$GPGGA,081424.00,3116.6400936,N,12132.1413000,E,4,11,1.5,2.413,M,11.40,M,01,2817*54
$GPGGA,081425.00,3116.6404868,N,12132.1410256,E,4,11,1.5,2.406,M,11.40,M,01,2817*5D
$GPGGA,081426.00,3116.6409354,N,12132.1406680,E,4,11,1.5,2.454,M,11.40,M,01,2817*58
$GPGGA,081427.00,3116.6414110,N,12132.1402469,E,4,13,2.0,2.580,M,11.40,M,01,2817*5A
$GPGGA,081428.00,3116.6419082,N,12132.1398723,E,4,14,2.0,2.591,M,11.40,M,01,2817*5C
$GPGGA,081429.00,3116.6423922,N,12132.1394913,E,4,13,1.3,2.562,M,11.40,M,01,2817*5D
$GPGGA,081430.00,3116.6428764,N,12132.1391532,E,4,10,2.7,2.592,M,11.40,M,01,2817*53
$GPGGA,081431.00,3116.6433035,N,12132.1388683,E,4,09,1.9,2.457,M,11.40,M,01,2817*57
$GPGGA,081432.00,3116.6437020,N,12132.1386003,E,4,11,1.2,2.445,M,11.40,M,02,2817*56
$GPGGA,081433.00,3116.6441430,N,12132.1383144,E,4,10,1.6,2.514,M,11.40,M,03,2817*55
$GPGGA,081434.00,3116.6445592,N,12132.1380794,E,4,08,2.6,2.484,M,11.40,M,04,2817*52
$GPGGA,081435.00,3116.6449816,N,12132.1376841,E,4,10,2.5,2.597,M,11.40,M,05,2817*58
$GPGGA,081436.00,3116.6454291,N,12132.1373772,E,4,09,1.8,2.540,M,11.40,M,06,2817*57
$GPGGA,081437.00,3116.6459219,N,12132.1370095,E,4,10,3.1,2.540,M,11.40,M,07,2817*54
$GPGGA,081438.00,3116.6464003,N,12132.1366214,E,4,09,3.1,2.550,M,11.40,M,08,2817*56
$GPGGA,081439.00,3116.6468646,N,12132.1363116,E,4,09,4.0,2.506,M,11.40,M,09,2817*5C
$GPGGA,081440.00,3116.6473517,N,12132.1359469,E,4,08,4.0,2.571,M,11.40,M,10,2817*52
$GPGGA,081441.00,3116.6478442,N,12132.1356049,E,4,10,4.0,2.576,M,11.40,M,11,2817*5F
$GPGGA,081442.00,3116.6483144,N,12132.1352371,E,4,10,3.3,2.544,M,11.40,M,12,2817*51
$GPGGA,081443.00,3116.6487815,N,12132.1348778,E,4,09,3.5,2.618,M,11.40,M,13,2817*5A
$GPGGA,081444.00,3116.6492588,N,12132.1345271,E,4,09,3.5,2.617,M,11.40,M,01,2817*5D
$GPGGA,081445.00,3116.6497197,N,12132.1341598,E,4,07,9.9,2.584,M,11.40,M,01,2817*56
$GPGGA,081446.00,3116.6501651,N,12132.1337641,E,4,09,9.9,2.703,M,11.40,M,02,2817*50
$GPGGA,081447.00,3116.6506321,N,12132.1333961,E,4,11,1.9,2.756,M,11.40,M,03,2817*5D
$GPGGA,081448.00,3116.6510608,N,12132.1330657,E,4,09,3.3,2.654,M,11.40,M,04,2817*57
$GPGGA,081449.00,3116.6514677,N,12132.1327871,E,4,10,3.3,2.654,M,11.40,M,05,2817*5F
$GPGGA,081450.00,3116.6518432,N,12132.1325234,E,4,09,3.3,2.704,M,11.40,M,06,2817*5E
$GPGGA,081451.00,3116.6521760,N,12132.1322904,E,4,10,3.3,2.750,M,11.40,M,01,2817*50
$GPGGA,081452.00,3116.6525411,N,12132.1320846,E,4,09,3.3,2.704,M,11.40,M,01,2817*5E
$GPGGA,081453.00,3116.6529106,N,12132.1318057,E,4,09,4.1,2.711,M,11.40,M,01,2817*52
$GPGGA,081454.00,3116.6532725,N,12132.1315528,E,4,10,4.1,2.647,M,11.40,M,02,2817*51
$GPGGA,081455.00,3116.6536251,N,12132.1313027,E,4,10,3.3,2.802,M,11.40,M,03,2817*55
$GPGGA,081456.00,3116.6539898,N,12132.1310880,E,4,08,3.3,2.800,M,11.40,M,04,2817*5C
$GPGGA,081457.00,3116.6544246,N,12132.1308970,E,4,06,3.4,2.584,M,11.40,M,01,2817*54
$GPGGA,081458.00,3116.6547945,N,12132.1306370,E,4,08,4.1,2.596,M,11.40,M,02,2817*58
$GPGGA,081459.00,3116.6551468,N,12132.1303965,E,4,08,4.1,2.608,M,11.40,M,03,2817*52
$GPGGA,081500.00,3116.6555690,N,12132.1301817,E,4,07,3.4,2.474,M,11.40,M,04,2817*5B
$GPGGA,081501.00,3116.6560265,N,12132.1298732,E,4,08,3.3,2.491,M,11.40,M,05,2817*59
$GPGGA,081502.00,3116.6564519,N,12132.1294902,E,4,07,4.1,2.554,M,11.40,M,06,2817*52
$GPGGA,081503.00,3116.6569065,N,12132.1291369,E,4,08,3.3,2.552,M,11.40,M,07,2817*5F
$GPGGA,081504.00,3116.6574499,N,12132.1287534,E,4,08,3.3,2.531,M,11.40,M,08,2817*50
$GPGGA,081505.00,3116.6579811,N,12132.1284047,E,4,09,9.9,2.481,M,11.40,M,09,2817*58
$GPGGA,081506.00,3116.6583924,N,12132.1281010,E,4,09,1.9,2.357,M,11.40,M,10,2817*52
$GPGGA,081507.00,3116.6587561,N,12132.1277764,E,4,10,1.9,2.402,M,11.40,M,11,2817*59
$GPGGA,081508.00,3116.6591315,N,12132.1274291,E,4,12,1.7,2.420,M,11.40,M,01,2817*55
$GPGGA,081509.00,3116.6595527,N,12132.1271057,E,4,11,1.9,2.426,M,11.40,M,01,2817*51
$GPGGA,081510.00,3116.6600066,N,12132.1267479,E,4,11,2.0,2.437,M,11.40,M,01,2817*53
$GPGGA,081511.00,3116.6605025,N,12132.1264215,E,4,14,1.4,2.420,M,11.40,M,02,2817*58
$GPGGA,081512.00,3116.6610016,N,12132.1261053,E,4,15,1.3,2.438,M,11.40,M,03,2817*54
$GPGGA,081513.00,3116.6614890,N,12132.1257977,E,4,16,1.3,2.416,M,11.40,M,01,2817*50
$GPGGA,081514.00,3116.6621878,N,12132.1252132,E,4,14,1.3,2.474,M,11.40,M,01,2817*5D
$GPGGA,081515.00,3116.6627193,N,12132.1249331,E,4,13,1.4,2.434,M,11.40,M,01,2817*59
$GPGGA,081516.00,3116.6632112,N,12132.1247713,E,4,16,1.7,2.476,M,11.40,M,01,2817*5D
$GPGGA,081517.00,3116.6636321,N,12132.1247161,E,4,16,1.3,2.498,M,11.40,M,01,2817*5D
$GPGGA,081518.00,3116.6640543,N,12132.1247551,E,4,16,1.3,2.466,M,11.40,M,01,2817*57
$GPGGA,081519.00,3116.6645768,N,12132.1248540,E,4,17,1.2,2.476,M,11.40,M,01,2817*56
$GPGGA,081520.00,3116.6650919,N,12132.1249314,E,4,17,1.2,2.497,M,11.40,M,01,2817*59
$GPGGA,081521.00,3116.6655626,N,12132.1250314,E,4,18,1.2,2.496,M,11.40,M,01,2817*58
$GPGGA,081522.00,3116.6660007,N,12132.1251643,E,4,17,1.2,2.501,M,11.40,M,01,2817*5E
$GPGGA,081523.00,3116.6664143,N,12132.1253471,E,4,18,1.2,2.500,M,11.40,M,01,2817*55
$GPGGA,081524.00,3116.6667927,N,12132.1256345,E,4,16,1.2,2.504,M,11.40,M,01,2817*54
$GPGGA,081525.00,3116.6671038,N,12132.1260314,E,4,17,1.2,2.575,M,11.40,M,01,2817*53
$GPGGA,081526.00,3116.6673330,N,12132.1265093,E,4,17,1.2,2.549,M,11.40,M,02,2817*5C
$GPGGA,081527.00,3116.6675258,N,12132.1270457,E,4,15,1.2,2.616,M,11.40,M,01,2817*54
$GPGGA,081528.00,3116.6676850,N,12132.1274171,E,4,15,1.3,2.597,M,11.40,M,01,2817*54
$GPGGA,081529.00,3116.6678211,N,12132.1277657,E,4,13,1.5,2.610,M,11.40,M,01,2817*58
$GPGGA,081530.00,3116.6679547,N,12132.1280473,E,4,13,1.2,2.584,M,11.40,M,01,2817*50
$GPGGA,081531.00,3116.6681494,N,12132.1284375,E,4,12,1.3,2.570,M,11.40,M,01,2817*57
$GPGGA,081532.00,3116.6683948,N,12132.1288983,E,4,12,1.3,2.623,M,11.40,M,01,2817*50
$GPGGA,081533.00,3116.6686249,N,12132.1293905,E,4,11,1.3,2.594,M,11.40,M,02,2817*55
$GPGGA,081534.00,3116.6688759,N,12132.1299133,E,4,12,1.3,2.619,M,11.40,M,01,2817*59
$GPGGA,081535.00,3116.6691533,N,12132.1303873,E,4,15,1.3,2.539,M,11.40,M,01,2817*57
$GPGGA,081536.00,3116.6693977,N,12132.1308485,E,4,14,1.3,2.538,M,11.40,M,01,2817*54
$GPGGA,081537.00,3116.6696313,N,12132.1313657,E,4,13,1.6,2.547,M,11.40,M,01,2817*55
$GPGGA,081538.00,3116.6698794,N,12132.1318317,E,4,12,1.3,2.512,M,11.40,M,01,2817*51
$GPGGA,081539.00,3116.6701099,N,12132.1323351,E,4,11,1.3,2.538,M,11.40,M,01,2817*5A
$GPGGA,081540.00,3116.6702808,N,12132.1328205,E,4,12,1.6,2.485,M,11.40,M,01,2817*5D
$GPGGA,081541.00,3116.6705092,N,12132.1333175,E,4,09,1.7,2.510,M,11.40,M,01,2817*58
$GPGGA,081542.00,3116.6707076,N,12132.1337985,E,4,12,1.3,2.501,M,11.40,M,01,2817*5E
$GPGGA,081543.00,3116.6708837,N,12132.1342187,E,4,09,1.7,2.462,M,11.40,M,01,2817*5F
$GPGGA,081544.00,3116.6710509,N,12132.1346888,E,4,08,2.1,2.585,M,11.40,M,01,2817*5F
$GPGGA,081545.00,3116.6712012,N,12132.1351075,E,4,11,1.7,2.583,M,11.40,M,01,2817*54
$GPGGA,081546.00,3116.6713574,N,12132.1354755,E,4,09,1.7,2.582,M,11.40,M,01,2817*5B
$GPGGA,081547.00,3116.6715418,N,12132.1358619,E,4,10,1.5,2.617,M,11.40,M,01,2817*57
$GPGGA,081548.00,3116.6717275,N,12132.1363097,E,4,12,1.5,2.626,M,11.40,M,01,2817*5F
$GPGGA,081549.00,3116.6718729,N,12132.1366428,E,4,13,1.5,2.752,M,11.40,M,01,2817*5B
$GPGGA,081550.00,3116.6720316,N,12132.1369429,E,4,11,1.3,2.747,M,11.40,M,01,2817*5E
$GPGGA,081551.00,3116.6722535,N,12132.1373075,E,4,11,1.7,2.814,M,11.40,M,01,2817*51
$GPGGA,081552.00,3116.6724458,N,12132.1376780,E,4,09,1.7,2.831,M,11.40,M,01,2817*58
$GPGGA,081553.00,3116.6726028,N,12132.1380720,E,4,09,1.7,2.795,M,11.40,M,01,2817*5A
$GPGGA,081554.00,3116.6727572,N,12132.1384652,E,4,11,1.8,2.756,M,11.40,M,01,2817*5F
$GPGGA,081555.00,3116.6729146,N,12132.1389192,E,4,11,1.7,2.656,M,11.40,M,01,2817*5B
$GPGGA,081556.00,3116.6731465,N,12132.1393213,E,4,11,1.5,2.653,M,11.40,M,01,2817*53
$GPGGA,081557.00,3116.6733828,N,12132.1397534,E,4,10,1.5,2.705,M,11.40,M,02,2817*53
$GPGGA,081558.00,3116.6735792,N,12132.1401888,E,4,14,1.7,2.711,M,11.40,M,02,2817*55
$GPGGA,081559.00,3116.6737729,N,12132.1406611,E,4,14,1.5,2.698,M,11.40,M,01,2817*5E
$GPGGA,081600.00,3116.6739674,N,12132.1411547,E,4,14,1.7,2.703,M,11.40,M,01,2817*51
$GPGGA,081601.00,3116.6741827,N,12132.1416032,E,4,14,1.5,2.704,M,11.40,M,01,2817*52
$GPGGA,081602.00,3116.6744732,N,12132.1421128,E,4,12,1.6,2.789,M,11.40,M,01,2817*51
$GPGGA,081603.00,3116.6747526,N,12132.1427087,E,4,11,1.9,2.697,M,11.40,M,01,2817*54
$GPGGA,081604.00,3116.6750289,N,12132.1431916,E,4,13,1.9,2.756,M,11.40,M,01,2817*5F
$GPGGA,081605.00,3116.6752225,N,12132.1435770,E,4,12,1.5,2.743,M,11.40,M,01,2817*59
$GPGGA,081606.00,3116.6753899,N,12132.1439335,E,4,11,1.7,2.755,M,11.40,M,02,2817*5A
$GPGGA,081607.00,3116.6755659,N,12132.1442990,E,4,12,1.5,2.814,M,11.40,M,03,2817*5C
$GPGGA,081608.00,3116.6757461,N,12132.1447431,E,4,10,1.5,2.768,M,11.40,M,01,2817*5F
$GPGGA,081609.00,3116.6759902,N,12132.1452097,E,4,10,1.9,2.771,M,11.40,M,01,2817*50
$GPGGA,081610.00,3116.6762632,N,12132.1457290,E,4,08,1.5,2.863,M,11.40,M,01,2817*55
$GPGGA,081611.00,3116.6764957,N,12132.1462283,E,4,09,1.8,2.864,M,11.40,M,01,2817*51
$GPGGA,081612.00,3116.6767412,N,12132.1467187,E,4,11,1.8,2.899,M,11.40,M,01,2817*54
$GPGGA,081613.00,3116.6770084,N,12132.1472264,E,4,11,1.8,2.896,M,11.40,M,01,2817*5D
$GPGGA,081614.00,3116.6773151,N,12132.1477688,E,4,12,1.6,2.909,M,11.40,M,01,2817*59
$GPGGA,081615.00,3116.6776237,N,12132.1483069,E,4,12,1.7,2.924,M,11.40,M,02,2817*51
$GPGGA,081616.00,3116.6779403,N,12132.1488467,E,4,13,1.7,2.931,M,11.40,M,01,2817*5B
$GPGGA,081617.00,3116.6782664,N,12132.1494093,E,4,09,1.5,2.947,M,11.40,M,01,2817*57
$GPGGA,081618.00,3116.6785785,N,12132.1500101,E,4,12,1.6,2.938,M,11.40,M,01,2817*56
$GPGGA,081619.00,3116.6789044,N,12132.1505803,E,4,09,1.8,2.966,M,11.40,M,01,2817*50
$GPGGA,081620.00,3116.6792424,N,12132.1511244,E,4,11,1.8,2.944,M,11.40,M,01,2817*57
$GPGGA,081621.00,3116.6795811,N,12132.1516472,E,4,12,1.5,2.953,M,11.40,M,01,2817*57
$GPGGA,081622.00,3116.6798581,N,12132.1521643,E,4,13,1.3,2.920,M,11.40,M,01,2817*5A
$GPGGA,081623.00,3116.6801199,N,12132.1527129,E,4,14,1.3,2.806,M,11.40,M,01,2817*56
$GPGGA,081624.00,3116.6804275,N,12132.1532712,E,4,13,1.3,2.824,M,11.40,M,01,2817*58
$GPGGA,081625.00,3116.6807290,N,12132.1538340,E,4,14,1.3,2.850,M,11.40,M,01,2817*5C
$GPGGA,081626.00,3116.6810141,N,12132.1544441,E,4,13,1.2,2.727,M,11.40,M,02,2817*51
$GPGGA,081627.00,3116.6813336,N,12132.1550983,E,4,12,1.2,2.896,M,11.40,M,01,2817*50
$GPGGA,081628.00,3116.6816478,N,12132.1557026,E,4,13,1.3,2.882,M,11.40,M,02,2817*50
$GPGGA,081629.00,3116.6819526,N,12132.1562167,E,4,13,1.2,2.814,M,11.40,M,01,2817*5B
$GPGGA,081630.00,3116.6822807,N,12132.1566769,E,4,14,1.2,2.855,M,11.40,M,01,2817*5B
$GPGGA,081631.00,3116.6826529,N,12132.1570751,E,4,13,1.5,2.855,M,11.40,M,01,2817*53
$GPGGA,081632.00,3116.6830983,N,12132.1574117,E,4,14,1.5,2.916,M,11.40,M,01,2817*5A
$GPGGA,081633.00,3116.6835756,N,12132.1576796,E,4,13,1.5,2.918,M,11.40,M,01,2817*5C
$GPGGA,081634.00,3116.6840538,N,12132.1579112,E,4,14,1.5,2.919,M,11.40,M,01,2817*50
$GPGGA,081635.00,3116.6844801,N,12132.1581536,E,4,16,1.5,2.942,M,11.40,M,01,2817*5B
$GPGGA,081636.00,3116.6848781,N,12132.1584616,E,4,16,1.2,2.954,M,11.40,M,01,2817*57
$GPGGA,081637.00,3116.6852569,N,12132.1587508,E,4,17,1.2,2.936,M,11.40,M,01,2817*53
$GPGGA,081638.00,3116.6856358,N,12132.1590170,E,4,16,1.2,2.959,M,11.40,M,01,2817*59
$GPGGA,081639.00,3116.6860157,N,12132.1593162,E,4,17,1.2,2.959,M,11.40,M,01,2817*51
$GPGGA,081640.00,3116.6862725,N,12132.1596301,E,4,16,1.2,2.981,M,11.40,M,01,2817*58
$GPGGA,081641.00,3116.6864907,N,12132.1599403,E,4,16,1.3,2.981,M,11.40,M,01,2817*5A
$GPGGA,081642.00,3116.6866298,N,12132.1601888,E,4,14,1.3,2.964,M,11.40,M,02,2817*51
$GPGGA,081643.00,3116.6867870,N,12132.1605887,E,4,15,1.3,3.042,M,11.40,M,01,2817*58
$GPGGA,081644.00,3116.6869711,N,12132.1610715,E,4,14,1.3,3.033,M,11.40,M,01,2817*5E
$GPGGA,081645.00,3116.6872014,N,12132.1615757,E,4,15,1.3,3.040,M,11.40,M,01,2817*51
$GPGGA,081646.00,3116.6874235,N,12132.1620946,E,4,15,1.3,3.030,M,11.40,M,02,2817*59
$GPGGA,081647.00,3116.6876146,N,12132.1626358,E,4,13,1.3,3.062,M,11.40,M,01,2817*5C
$GPGGA,081648.00,3116.6877761,N,12132.1631726,E,4,13,1.3,3.049,M,11.40,M,01,2817*53
$GPGGA,081649.00,3116.6879423,N,12132.1637179,E,4,14,1.3,3.046,M,11.40,M,01,2817*5B
$GPGGA,081650.00,3116.6881165,N,12132.1642834,E,4,14,1.5,3.059,M,11.40,M,01,2817*59
$GPGGA,081651.00,3116.6883054,N,12132.1648634,E,4,13,1.3,3.104,M,11.40,M,01,2817*55
$GPGGA,081652.00,3116.6885238,N,12132.1654120,E,4,14,1.9,3.099,M,11.40,M,02,2817*5C$GPGGA,081653.00,3116.6887177,N,12132.1658803,E,4,13,1.5,3.126,M,11.40,M,01,2817*5E
$GPGGA,081654.00,3116.6888962,N,12132.1662870,E,4,13,1.6,3.097,M,11.40,M,01,2817*5F
$GPGGA,081655.00,3116.6890712,N,12132.1667233,E,4,14,1.6,3.182,M,11.40,M,01,2817*54
$GPGGA,081656.00,3116.6892353,N,12132.1671904,E,4,11,1.7,3.136,M,11.40,M,01,2817*57
$GPGGA,081657.00,3116.6894745,N,12132.1677386,E,4,13,1.8,3.174,M,11.40,M,01,2817*5E
$GPGGA,081658.00,3116.6897411,N,12132.1683533,E,4,13,1.5,3.172,M,11.40,M,01,2817*58
$GPGGA,081659.00,3116.6900687,N,12132.1689713,E,4,14,1.3,3.176,M,11.40,M,02,2817*57
$GPGGA,081700.00,3116.6903636,N,12132.1695450,E,4,15,1.5,3.166,M,11.40,M,01,2817*5F
$GPGGA,081701.00,3116.6906463,N,12132.1700750,E,4,14,1.5,3.154,M,11.40,M,01,2817*57
$GPGGA,081702.00,3116.6909475,N,12132.1705705,E,4,15,1.3,3.160,M,11.40,M,01,2817*59
$GPGGA,081703.00,3116.6912480,N,12132.1710611,E,4,13,1.3,3.139,M,11.40,M,01,2817*52
$GPGGA,081704.00,3116.6915499,N,12132.1715718,E,4,10,1.6,3.150,M,11.40,M,01,2817*5E
$GPGGA,081705.00,3116.6918255,N,12132.1721001,E,4,13,1.6,3.126,M,11.40,M,01,2817*5E
$GPGGA,081706.00,3116.6920862,N,12132.1725892,E,4,15,1.6,3.137,M,11.40,M,01,2817*58
$GPGGA,081707.00,3116.6923392,N,12132.1730917,E,4,15,1.2,3.148,M,11.40,M,01,2817*5A
$GPGGA,081708.00,3116.6925732,N,12132.1735864,E,4,12,1.2,3.169,M,11.40,M,01,2817*59
$GPGGA,081709.00,3116.6928492,N,12132.1740135,E,4,12,1.6,3.145,M,11.40,M,01,2817*59
$GPGGA,081710.00,3116.6931853,N,12132.1743561,E,4,12,1.6,3.165,M,11.40,M,01,2817*5C
$GPGGA,081711.00,3116.6935646,N,12132.1745674,E,4,11,1.3,3.166,M,11.40,M,01,2817*57
$GPGGA,081712.00,3116.6940353,N,12132.1745696,E,4,13,1.5,3.203,M,11.40,M,01,2817*5F
$GPGGA,081713.00,3116.6945207,N,12132.1742654,E,4,13,1.5,3.205,M,11.40,M,01,2817*54
$GPGGA,081714.00,3116.6947923,N,12132.1736721,E,4,15,1.5,3.135,M,11.40,M,01,2817*5A
$GPGGA,081715.00,3116.6948185,N,12132.1730556,E,4,15,1.5,3.101,M,11.40,M,01,2817*53
$GPGGA,081716.00,3116.6946095,N,12132.1725494,E,4,13,1.3,3.042,M,11.40,M,01,2817*53
$GPGGA,081717.00,3116.6943630,N,12132.1720503,E,4,14,1.5,3.024,M,11.40,M,01,2817*55
$GPGGA,081718.00,3116.6941027,N,12132.1715821,E,4,15,1.5,3.073,M,11.40,M,02,2817*53
$GPGGA,081719.00,3116.6938483,N,12132.1711095,E,4,12,1.5,3.039,M,11.40,M,02,2817*5C
$GPGGA,081720.00,3116.6935517,N,12132.1705816,E,4,13,1.5,3.078,M,11.40,M,01,2817*56
$GPGGA,081721.00,3116.6932534,N,12132.1700138,E,4,13,1.5,3.010,M,11.40,M,01,2817*5F
$GPGGA,081722.00,3116.6929364,N,12132.1694401,E,4,14,1.7,3.047,M,11.40,M,01,2817*51
$GPGGA,081723.00,3116.6926166,N,12132.1688944,E,4,13,1.5,3.000,M,11.40,M,01,2817*58
$GPGGA,081724.00,3116.6923395,N,12132.1683728,E,4,14,1.7,2.950,M,11.40,M,01,2817*53$GPGGA,081725.00,3116.6921215,N,12132.1679205,E,4,15,1.5,2.957,M,11.40,M,01,2817*52
$GPGGA,081726.00,3116.6919516,N,12132.1675927,E,4,14,1.6,2.875,M,11.40,M,02,2817*59$GPGGA,081727.00,3116.6917187,N,12132.1671651,E,4,12,1.8,2.920,M,11.40,M,01,2817*5A
$GPGGA,081728.00,3116.6914655,N,12132.1667030,E,4,12,1.8,2.828,M,11.40,M,01,2817*51
$GPGGA,081729.00,3116.6911962,N,12132.1662309,E,4,12,1.6,2.854,M,11.40,M,01,2817*57
$GPGGA,081730.00,3116.6909135,N,12132.1657217,E,4,12,1.8,2.854,M,11.40,M,01,2817*5A
$GPGGA,081731.00,3116.6905986,N,12132.1651102,E,4,14,1.6,2.851,M,11.40,M,01,2817*5B
$GPGGA,081732.00,3116.6902191,N,12132.1644686,E,4,13,1.6,2.849,M,11.40,M,01,2817*50
$GPGGA,081733.00,3116.6898530,N,12132.1638379,E,4,10,1.8,2.827,M,11.40,M,01,2817*57
$GPGGA,081734.00,3116.6895379,N,12132.1632831,E,4,13,1.8,2.821,M,11.40,M,01,2817*5E
$GPGGA,081735.00,3116.6892351,N,12132.1628344,E,4,12,1.2,2.805,M,11.40,M,01,2817*5D
$GPGGA,081736.00,3116.6889567,N,12132.1624375,E,4,12,1.6,2.798,M,11.40,M,01,2817*56
$GPGGA,081737.00,3116.6887481,N,12132.1619599,E,4,13,1.6,2.798,M,11.40,M,01,2817*5B
$GPGGA,081738.00,3116.6885217,N,12132.1613648,E,4,12,1.6,2.814,M,11.40,M,02,2817*53
$GPGGA,081739.00,3116.6882311,N,12132.1607309,E,4,13,1.5,2.772,M,11.40,M,01,2817*59
$GPGGA,081740.00,3116.6879074,N,12132.1601365,E,4,12,1.3,2.862,M,11.40,M,01,2817*56
$GPGGA,081741.00,3116.6875915,N,12132.1596232,E,4,13,1.3,2.905,M,11.40,M,02,2817*59
$GPGGA,081742.00,3116.6873569,N,12132.1591494,E,4,14,1.4,2.788,M,11.40,M,01,2817*5E
$GPGGA,081743.00,3116.6871257,N,12132.1586253,E,4,15,1.7,2.732,M,11.40,M,01,2817*5F
$GPGGA,081744.00,3116.6868509,N,12132.1581010,E,4,15,1.3,2.724,M,11.40,M,01,2817*5D
$GPGGA,081745.00,3116.6865587,N,12132.1575660,E,4,14,1.3,2.725,M,11.40,M,01,2817*5D
$GPGGA,081746.00,3116.6862716,N,12132.1570072,E,4,14,1.3,2.725,M,11.40,M,01,2817*53
$GPGGA,081747.00,3116.6859664,N,12132.1564317,E,4,14,1.5,2.724,M,11.40,M,01,2817*5C
$GPGGA,081748.00,3116.6856466,N,12132.1558983,E,4,15,1.5,2.714,M,11.40,M,01,2817*56
$GPGGA,081749.00,3116.6853193,N,12132.1553496,E,4,14,1.3,2.718,M,11.40,M,02,2817*57
$GPGGA,081750.00,3116.6849958,N,12132.1548106,E,4,13,1.3,2.711,M,11.40,M,02,2817*53
$GPGGA,081751.00,3116.6846801,N,12132.1542628,E,4,13,1.6,2.704,M,11.40,M,02,2817*50
$GPGGA,081752.00,3116.6843617,N,12132.1536940,E,4,14,1.3,2.702,M,11.40,M,02,2817*59
$GPGGA,081753.00,3116.6840464,N,12132.1531234,E,4,14,1.3,2.710,M,11.40,M,02,2817*51
$GPGGA,081754.00,3116.6836123,N,12132.1526390,E,5,14,1.3,2.511,M,11.40,M,02,2817*5A
$GPGGA,081755.00,3116.6832695,N,12132.1520539,E,5,15,1.3,2.437,M,11.40,M,01,2817*51
$GPGGA,081756.00,3116.6829519,N,12132.1514231,E,5,15,1.4,2.426,M,11.40,M,02,2817*53
$GPGGA,081757.00,3116.6826046,N,12132.1508360,E,5,16,1.4,2.407,M,11.40,M,01,2817*59
$GPGGA,081758.00,3116.6822664,N,12132.1501978,E,5,14,1.3,2.435,M,11.40,M,01,2817*5A
$GPGGA,081759.00,3116.6819246,N,12132.1495868,E,5,14,1.3,2.372,M,11.40,M,01,2817*5F
$GPGGA,081800.00,3116.6815944,N,12132.1489727,E,5,14,1.3,2.326,M,11.40,M,01,2817*51
$GPGGA,081801.00,3116.6812894,N,12132.1483742,E,5,14,1.6,2.317,M,11.40,M,01,2817*55
$GPGGA,081802.00,3116.6809871,N,12132.1478577,E,5,14,1.6,2.346,M,11.40,M,01,2817*53
$GPGGA,081803.00,3116.6807165,N,12132.1473832,E,5,15,1.2,2.323,M,11.40,M,01,2817*51
$GPGGA,081804.00,3116.6804538,N,12132.1468555,E,5,15,1.0,2.294,M,11.40,M,02,2817*53$GPGGA,081805.00,3116.6801960,N,12132.1462020,E,5,15,1.0,2.379,M,11.40,M,02,2817*59
$GPGGA,081806.00,3116.6799340,N,12132.1455263,E,5,15,1.5,2.403,M,11.40,M,01,2817*51
$GPGGA,081807.00,3116.6796515,N,12132.1449090,E,5,14,1.5,2.364,M,11.40,M,01,2817*5D
$GPGGA,081808.00,3116.6793954,N,12132.1442874,E,5,13,1.6,2.408,M,11.40,M,01,2817*5E$GPGGA,081809.00,3116.6791522,N,12132.1437306,E,5,15,1.4,2.438,M,11.40,M,01,2817*5B
$GPGGA,081810.00,3116.6789194,N,12132.1431184,E,5,14,1.4,2.474,M,11.40,M,02,2817*57
$GPGGA,081811.00,3116.6786920,N,12132.1424805,E,5,14,1.4,2.425,M,11.40,M,01,2817*5D
$GPGGA,081812.00,3116.6784217,N,12132.1418092,E,5,14,1.3,2.495,M,11.40,M,01,2817*56
$GPGGA,081813.00,3116.6781226,N,12132.1412083,E,5,16,1.3,2.488,M,11.40,M,02,2817*57
$GPGGA,081814.00,3116.6778399,N,12132.1406248,E,5,16,1.3,2.468,M,11.40,M,01,2817*5E
$GPGGA,081815.00,3116.6775531,N,12132.1399979,E,5,15,1.5,2.492,M,11.40,M,01,2817*5E
$GPGGA,081816.00,3116.6772241,N,12132.1394166,E,5,14,1.5,2.473,M,11.40,M,01,2817*5F
$GPGGA,081817.00,3116.6768990,N,12132.1389375,E,5,13,1.5,2.473,M,11.40,M,01,2817*59
$GPGGA,081818.00,3116.6765234,N,12132.1384018,E,5,13,1.5,2.443,M,11.40,M,01,2817*58
$GPGGA,081819.00,3116.6761189,N,12132.1378610,E,5,13,1.5,2.514,M,11.40,M,01,2817*56
$GPGGA,081820.00,3116.6757670,N,12132.1374602,E,5,14,1.3,2.458,M,11.40,M,01,2817*5F
$GPGGA,081821.00,3116.6754893,N,12132.1370844,E,5,14,1.5,2.426,M,11.40,M,02,2817*5A
$GPGGA,081822.00,3116.6752198,N,12132.1366856,E,5,13,1.5,2.422,M,11.40,M,03,2817*5B
$GPGGA,081823.00,3116.6749233,N,12132.1363058,E,5,13,1.5,2.376,M,11.40,M,01,2817*55
$GPGGA,081824.00,3116.6747098,N,12132.1359970,E,5,12,1.5,2.402,M,11.40,M,01,2817*50
$GPGGA,081825.00,3116.6745646,N,12132.1357300,E,5,14,1.3,2.405,M,11.40,M,02,2817*51
$GPGGA,081826.00,3116.6744442,N,12132.1354966,E,5,13,1.5,2.429,M,11.40,M,01,2817*50
$GPGGA,081827.00,3116.6743752,N,12132.1354072,E,5,11,1.5,2.417,M,11.40,M,01,2817*57
$GPGGA,081828.00,3116.6743699,N,12132.1353358,E,5,10,1.5,2.382,M,11.40,M,01,2817*58
$GPGGA,081829.00,3116.6743191,N,12132.1353029,E,5,13,1.5,2.337,M,11.40,M,01,2817*5E
$GPGGA,081830.00,3116.6742919,N,12132.1352699,E,5,14,1.5,2.384,M,11.40,M,01,2817*5C
$GPGGA,081831.00,3116.6742663,N,12132.1352102,E,5,13,1.5,2.379,M,11.40,M,02,2817*5C
$GPGGA,081832.00,3116.6742398,N,12132.1351473,E,5,12,1.5,2.377,M,11.40,M,01,2817*52
$GPGGA,081833.00,3116.6742265,N,12132.1350380,E,5,09,1.6,2.282,M,11.40,M,01,2817*58
$GPGGA,081834.00,3116.6739897,N,12132.1347903,E,5,10,1.6,2.329,M,11.40,M,01,2817*5B
$GPGGA,081835.00,3116.6737160,N,12132.1343546,E,5,13,1.5,2.338,M,11.40,M,01,2817*5C
$GPGGA,081836.00,3116.6734521,N,12132.1338412,E,5,13,1.5,2.376,M,11.40,M,01,2817*5B
$GPGGA,081837.00,3116.6731815,N,12132.1333271,E,5,13,1.5,2.382,M,11.40,M,01,2817*56
$GPGGA,081838.00,3116.6729004,N,12132.1328335,E,5,13,1.5,2.333,M,11.40,M,02,2817*5A
$GPGGA,081839.00,3116.6726147,N,12132.1323601,E,5,13,1.7,2.364,M,11.40,M,01,2817*58
$GPGGA,081840.00,3116.6723705,N,12132.1318988,E,5,16,1.5,2.314,M,11.40,M,01,2817*55
$GPGGA,081841.00,3116.6721035,N,12132.1314354,E,5,13,1.2,2.272,M,11.40,M,02,2817*55
$GPGGA,081842.00,3116.6718369,N,12132.1309407,E,5,15,1.5,2.300,M,11.40,M,01,2817*5D
$GPGGA,081843.00,3116.6715868,N,12132.1303872,E,5,14,1.3,2.365,M,11.40,M,02,2817*58
$GPGGA,081844.00,3116.6713449,N,12132.1298163,E,5,14,1.3,2.356,M,11.40,M,01,2817*5F
$GPGGA,081845.00,3116.6710928,N,12132.1292862,E,5,14,1.3,2.378,M,11.40,M,01,2817*59
$GPGGA,081846.00,3116.6708235,N,12132.1287805,E,5,13,1.3,2.364,M,11.40,M,02,2817*58
$GPGGA,081847.00,3116.6705754,N,12132.1282849,E,5,14,1.3,2.405,M,11.40,M,01,2817*5F
$GPGGA,081848.00,3116.6703201,N,12132.1278919,E,5,15,1.3,2.409,M,11.40,M,01,2817*5F
$GPGGA,081849.00,3116.6700603,N,12132.1274403,E,5,15,1.3,2.394,M,11.40,M,01,2817*52
$GPGGA,081850.00,3116.6697821,N,12132.1269498,E,5,15,1.3,2.421,M,11.40,M,01,2817*5C
$GPGGA,081851.00,3116.6694852,N,12132.1263928,E,5,16,1.1,2.439,M,11.40,M,01,2817*5E
$GPGGA,081852.00,3116.6691697,N,12132.1258493,E,5,17,1.1,2.453,M,11.40,M,01,2817*57
$GPGGA,081853.00,3116.6688235,N,12132.1253614,E,5,16,1.0,2.489,M,11.40,M,01,2817*53
$GPGGA,081854.00,3116.6684884,N,12132.1249065,E,5,17,1.1,2.478,M,11.40,M,01,2817*5D
$GPGGA,081855.00,3116.6681717,N,12132.1245433,E,5,17,1.1,2.462,M,11.40,M,01,2817*5C
$GPGGA,081856.00,3116.6679298,N,12132.1241755,E,5,17,1.0,2.417,M,11.40,M,01,2817*5E
$GPGGA,081857.00,3116.6677630,N,12132.1237300,E,5,18,1.0,2.474,M,11.40,M,01,2817*58
$GPGGA,081858.00,3116.6676909,N,12132.1233210,E,5,18,1.0,2.448,M,11.40,M,01,2817*58
$GPGGA,081859.00,3116.6676565,N,12132.1228118,E,5,18,1.0,2.409,M,11.40,M,01,2817*5B
$GPGGA,081900.00,3116.6676757,N,12132.1222485,E,5,15,1.1,2.369,M,11.40,M,02,2817*50
$GPGGA,081901.00,3116.6677948,N,12132.1217351,E,5,17,1.1,2.360,M,11.40,M,01,2817*50
$GPGGA,081902.00,3116.6679571,N,12132.1212954,E,5,15,1.1,2.352,M,11.40,M,01,2817*52
$GPGGA,081903.00,3116.6682084,N,12132.1208980,E,5,14,1.4,2.377,M,11.40,M,01,2817*59
$GPGGA,081904.00,3116.6685137,N,12132.1205407,E,5,15,1.3,2.335,M,11.40,M,02,2817*5C
$GPGGA,081905.00,3116.6688983,N,12132.1200720,E,5,13,1.3,2.500,M,11.40,M,01,2817*51
$GPGGA,081906.00,3116.6692987,N,12132.1196647,E,5,13,1.4,2.481,M,11.40,M,02,2817*5D
$GPGGA,081907.00,3116.6697302,N,12132.1193141,E,5,14,1.4,2.535,M,11.40,M,01,2817*50
$GPGGA,081908.00,3116.6702144,N,12132.1189515,E,5,13,1.4,2.504,M,11.40,M,01,2817*59
$GPGGA,081909.00,3116.6707270,N,12132.1186203,E,5,11,1.4,2.468,M,11.40,M,01,2817*5F
$GPGGA,081910.00,3116.6711916,N,12132.1181326,E,5,12,1.4,3.139,M,11.40,M,01,2817*59$GPGGA,081911.00,3116.6716320,N,12132.1178324,E,5,12,1.4,3.116,M,11.40,M,01,2817*59
$GPGGA,081912.00,3116.6720181,N,12132.1176012,E,5,12,1.4,3.070,M,11.40,M,01,2817*5F
$GPGGA,081913.00,3116.6723985,N,12132.1173383,E,5,12,1.4,3.077,M,11.40,M,01,2817*58
$GPGGA,081914.00,3116.6727683,N,12132.1171507,E,5,12,1.4,3.025,M,11.40,M,01,2817*5D
$GPGGA,081915.00,3116.6731065,N,12132.1169146,E,5,10,1.9,3.073,M,11.40,M,01,2817*51
$GPGGA,081916.00,3116.6734130,N,12132.1167127,E,5,11,1.9,2.979,M,11.40,M,01,2817*5C
$GPGGA,081917.00,3116.6737511,N,12132.1164429,E,5,11,1.9,2.986,M,11.40,M,01,2817*51
$GPGGA,081918.00,3116.6741146,N,12132.1161734,E,5,11,1.9,2.997,M,11.40,M,01,2817*53
$GPGGA,081919.00,3116.6744742,N,12132.1157675,E,5,09,2.3,3.268,M,11.40,M,01,2817*5E
$GPGGA,081920.00,3116.6748869,N,12132.1154631,E,5,10,2.3,3.334,M,11.40,M,01,2817*5D
$GPGGA,081921.00,3116.6752595,N,12132.1151503,E,5,07,4.4,3.399,M,11.40,M,01,2817*5E
$GPGGA,081922.00,3116.6755717,N,12132.1149097,E,5,09,2.4,3.390,M,11.40,M,02,2817*51
$GPGGA,081923.00,3116.6759393,N,12132.1146634,E,5,07,2.4,3.357,M,11.40,M,03,2817*50
$GPGGA,081924.00,3116.6763728,N,12132.1144051,E,5,09,2.6,3.298,M,11.40,M,04,2817*54
$GPGGA,081925.00,3116.6767731,N,12132.1140158,E,5,09,2.4,3.636,M,11.40,M,05,2817*56
$GPGGA,081926.00,3116.6771959,N,12132.1137546,E,5,08,9.9,3.399,M,11.40,M,06,2817*5D
$GPGGA,081927.00,3116.6776368,N,12132.1133016,E,5,07,9.9,3.741,M,11.40,M,07,2817*58
$GPGGA,081928.00,3116.6781272,N,12132.1130742,E,5,09,9.9,3.318,M,11.40,M,08,2817*59
$GPGGA,081929.00,3116.6786303,N,12132.1127245,E,5,09,2.4,3.254,M,11.40,M,09,2817*52
$GPGGA,081930.00,3116.6791162,N,12132.1122721,E,5,07,2.6,3.486,M,11.40,M,10,2817*56
$GPGGA,081931.00,3116.6795496,N,12132.1119450,E,5,07,2.6,3.373,M,11.40,M,11,2817*5C
$GPGGA,081932.00,3116.6799595,N,12132.1116731,E,5,07,3.9,3.019,M,11.40,M,12,2817*58
$GPGGA,081933.00,3116.6803046,N,12132.1114721,E,5,09,2.7,2.891,M,11.40,M,13,2817*54
$GPGGA,081934.00,3116.6806850,N,12132.1112217,E,5,07,2.3,2.853,M,11.40,M,14,2817*5C
$GPGGA,081935.00,3116.6810405,N,12132.1110136,E,5,09,2.3,2.700,M,11.40,M,15,2817*52
$GPGGA,081936.00,3116.6813585,N,12132.1107301,E,5,10,1.9,2.941,M,11.40,M,16,2817*52
$GPGGA,081937.00,3116.6816765,N,12132.1104940,E,5,08,2.4,3.157,M,11.40,M,17,2817*5E
$GPGGA,081938.00,3116.6819664,N,12132.1103135,E,5,08,2.4,3.058,M,11.40,M,18,2817*52
$GPGGA,081939.00,3116.6821941,N,12132.1101486,E,5,08,2.6,3.145,M,11.40,M,19,2817*51
$GPGGA,081940.00,3116.6824284,N,12132.1099700,E,5,09,2.7,3.222,M,11.40,M,20,2817*5D
$GPGGA,081941.00,3116.6827189,N,12132.1097123,E,5,08,9.9,3.304,M,11.40,M,21,2817*58
$GPGGA,081942.00,3116.6831161,N,12132.1094406,E,5,07,9.9,3.217,M,11.40,M,22,2817*54
$GPGGA,081943.00,3116.6835228,N,12132.1091909,E,5,11,1.7,2.846,M,11.40,M,23,2817*57
$GPGGA,081944.00,3116.6838842,N,12132.1088766,E,5,10,2.8,3.085,M,11.40,M,24,2817*58
$GPGGA,081945.00,3116.6843650,N,12132.1085580,E,5,11,1.4,3.054,M,11.40,M,01,2817*5A
$GPGGA,081946.00,3116.6847946,N,12132.1082510,E,5,10,1.4,3.104,M,11.40,M,01,2817*5E
$GPGGA,081947.00,3116.6852489,N,12132.1078845,E,5,09,1.4,3.136,M,11.40,M,02,2817*57
$GPGGA,081948.00,3116.6856384,N,12132.1075656,E,5,09,2.4,3.108,M,11.40,M,03,2817*58
$GPGGA,081949.00,3116.6860405,N,12132.1073387,E,5,08,2.3,3.065,M,11.40,M,04,2817*56
$GPGGA,081950.00,3116.6864106,N,12132.1070500,E,5,09,2.4,3.191,M,11.40,M,05,2817*5B
$GPGGA,081951.00,3116.6868487,N,12132.1067758,E,5,08,1.5,3.131,M,11.40,M,06,2817*59
$GPGGA,081952.00,3116.6872697,N,12132.1064032,E,5,07,2.3,3.309,M,11.40,M,07,2817*58
$GPGGA,081953.00,3116.6877206,N,12132.1061437,E,5,07,9.4,3.168,M,11.40,M,08,2817*52
$GPGGA,081954.00,3116.6881602,N,12132.1058988,E,5,07,9.5,3.079,M,11.40,M,09,2817*5E
$GPGGA,081955.00,3116.6886093,N,12132.1055589,E,5,07,3.0,3.188,M,11.40,M,10,2817*5E
$GPGGA,081956.00,3116.6891287,N,12132.1054310,E,5,08,2.4,2.828,M,11.40,M,11,2817*52
$GPGGA,081957.00,3116.6895832,N,12132.1051090,E,5,07,3.2,2.830,M,11.40,M,12,2817*5F
$GPGGA,081958.00,3116.6900488,N,12132.1048379,E,5,08,2.3,2.763,M,11.40,M,13,2817*5B
$GPGGA,081959.00,3116.6905229,N,12132.1045970,E,5,07,2.7,2.817,M,11.40,M,14,2817*5C
$GPGGA,082000.00,3116.6910047,N,12132.1043459,E,5,06,2.0,2.797,M,11.40,M,15,2817*54
$GPGGA,082001.00,3116.6915204,N,12132.1040320,E,5,11,1.5,2.772,M,11.40,M,16,2817*57
$GPGGA,082002.00,3116.6919289,N,12132.1036942,E,5,14,1.1,2.792,M,11.40,M,17,2817*5C
$GPGGA,082003.00,3116.6923624,N,12132.1033732,E,5,11,3.1,2.840,M,11.40,M,18,2817*53
$GPGGA,082004.00,3116.6928608,N,12132.1030010,E,5,09,2.4,2.835,M,11.40,M,01,2817*52
$GPGGA,082005.00,3116.6933375,N,12132.1026661,E,5,09,2.3,2.828,M,11.40,M,01,2817*5A
$GPGGA,082006.00,3116.6937446,N,12132.1023177,E,5,09,2.3,2.870,M,11.40,M,01,2817*52
$GPGGA,082007.00,3116.6941362,N,12132.1019660,E,5,07,2.5,2.883,M,11.40,M,01,2817*5F
$GPGGA,082008.00,3116.6945143,N,12132.1016658,E,5,08,9.9,2.858,M,11.40,M,02,2817*5C
$GPGGA,082009.00,3116.6948521,N,12132.1014218,E,5,08,7.7,2.826,M,11.40,M,03,2817*5A
$GPGGA,082010.00,3116.6952192,N,12132.1012062,E,5,10,1.9,2.884,M,11.40,M,04,2817*52
$GPGGA,082011.00,3116.6956057,N,12132.1009355,E,5,12,1.2,2.989,M,11.40,M,05,2817*56
$GPGGA,082012.00,3116.6960479,N,12132.1005980,E,5,10,1.8,3.007,M,11.40,M,06,2817*53
$GPGGA,082013.00,3116.6965285,N,12132.1000576,E,5,09,1.8,3.574,M,11.40,M,07,2817*5A
$GPGGA,082014.00,3116.6970006,N,12132.0996545,E,5,08,3.0,3.613,M,11.40,M,01,2817*58
$GPGGA,082015.00,3116.6974469,N,12132.0993217,E,5,11,1.7,3.551,M,11.40,M,02,2817*5E
$GPGGA,082016.00,3116.6978569,N,12132.0990124,E,5,10,2.1,3.514,M,11.40,M,03,2817*54
$GPGGA,082017.00,3116.6983026,N,12132.0987083,E,5,09,3.4,3.505,M,11.40,M,04,2817*5E
$GPGGA,082018.00,3116.6988192,N,12132.0983523,E,5,10,1.7,3.603,M,11.40,M,05,2817*52
$GPGGA,082019.00,3116.6993434,N,12132.0979930,E,5,11,1.7,3.579,M,11.40,M,06,2817*57
$GPGGA,082020.00,3116.6998527,N,12132.0976287,E,5,12,2.3,3.544,M,11.40,M,07,2817*56
$GPGGA,082021.00,3116.7003601,N,12132.0972260,E,5,11,3.0,3.619,M,11.40,M,08,2817*52
$GPGGA,082022.00,3116.7008140,N,12132.0968763,E,5,10,3.0,3.533,M,11.40,M,01,2817*56
$GPGGA,082023.00,3116.7011991,N,12132.0966234,E,5,09,2.2,3.389,M,11.40,M,01,2817*5E
$GPGGA,082024.00,3116.7015976,N,12132.0963694,E,5,08,2.6,3.185,M,11.40,M,02,2817*57
$GPGGA,082025.00,3116.7020277,N,12132.0960686,E,5,08,5.5,3.411,M,11.40,M,03,2817*57
$GPGGA,082026.00,3116.7024661,N,12132.0957669,E,5,09,2.4,3.551,M,11.40,M,04,2817*53
$GPGGA,082027.00,3116.7028854,N,12132.0955047,E,5,09,2.4,3.528,M,11.40,M,05,2817*51
$GPGGA,082028.00,3116.7032467,N,12132.0952740,E,5,09,2.4,3.482,M,11.40,M,06,2817*5C
$GPGGA,082029.00,3116.7036063,N,12132.0950349,E,5,09,2.4,3.440,M,11.40,M,02,2817*5C
$GPGGA,082030.00,3116.7039690,N,12132.0947316,E,5,08,3.0,3.487,M,11.40,M,03,2817*53
$GPGGA,082031.00,3116.7044160,N,12132.0944087,E,5,08,2.6,3.494,M,11.40,M,04,2817*5A
$GPGGA,082032.00,3116.7049133,N,12132.0940705,E,5,09,2.1,3.477,M,11.40,M,05,2817*51
$GPGGA,082033.00,3116.7054262,N,12132.0937331,E,5,08,2.1,3.503,M,11.40,M,06,2817*58
$GPGGA,082034.00,3116.7058764,N,12132.0934009,E,5,08,2.4,3.469,M,11.40,M,07,2817*52
$GPGGA,082035.00,3116.7062506,N,12132.0930814,E,5,07,1.8,3.424,M,11.40,M,08,2817*5A
$GPGGA,082036.00,3116.7066418,N,12132.0927788,E,5,07,1.6,3.480,M,11.40,M,09,2817*5E
$GPGGA,082037.00,3116.7070882,N,12132.0924189,E,5,08,2.5,3.474,M,11.40,M,10,2817*5F
$GPGGA,082038.00,3116.7075703,N,12132.0920560,E,5,09,4.5,3.475,M,11.40,M,11,2817*53
$GPGGA,082039.00,3116.7080683,N,12132.0916787,E,5,08,9.9,3.495,M,11.40,M,12,2817*52
$GPGGA,082040.00,3116.7085698,N,12132.0912688,E,5,09,2.7,3.592,M,11.40,M,13,2817*5A
$GPGGA,082041.00,3116.7090409,N,12132.0908993,E,5,08,2.5,3.526,M,11.40,M,14,2817*50
$GPGGA,082042.00,3116.7095442,N,12132.0905971,E,5,09,2.1,3.460,M,11.40,M,15,2817*5F
$GPGGA,082043.00,3116.7099202,N,12132.0903123,E,5,08,2.1,3.536,M,11.40,M,16,2817*59
$GPGGA,082044.00,3116.7103788,N,12132.0900085,E,5,06,9.9,3.499,M,11.40,M,17,2817*5D
$GPGGA,082045.00,3116.7108917,N,12132.0896568,E,5,07,9.9,3.582,M,11.40,M,18,2817*52
$GPGGA,082046.00,3116.7113187,N,12132.0893068,E,5,07,9.9,3.463,M,11.40,M,19,2817*55
$GPGGA,082047.00,3116.7117135,N,12132.0890102,E,5,07,9.9,3.625,M,11.40,M,20,2817*5D
$GPGGA,082048.00,3116.7121639,N,12132.0887058,E,5,08,2.4,3.666,M,11.40,M,21,2817*5B
$GPGGA,082049.00,3116.7126146,N,12132.0883630,E,5,09,2.4,3.723,M,11.40,M,22,2817*5C
$GPGGA,082050.00,3116.7130305,N,12132.0880757,E,5,09,2.3,3.623,M,11.40,M,23,2817*52
$GPGGA,082051.00,3116.7134221,N,12132.0878040,E,5,10,2.3,3.614,M,11.40,M,24,2817*5D
$GPGGA,082052.00,3116.7138215,N,12132.0875092,E,5,10,1.9,3.678,M,11.40,M,25,2817*55
$GPGGA,082053.00,3116.7142441,N,12132.0871866,E,5,09,1.9,3.714,M,11.40,M,26,2817*59
$GPGGA,082054.00,3116.7146630,N,12132.0869097,E,5,07,2.1,3.468,M,11.40,M,27,2817*5D
$GPGGA,082055.00,3116.7151275,N,12132.0865523,E,5,08,2.4,3.504,M,11.40,M,28,2817*57
$GPGGA,082056.00,3116.7155845,N,12132.0862294,E,5,11,2.3,3.447,M,11.40,M,29,2817*5D
$GPGGA,082057.00,3116.7159989,N,12132.0859581,E,5,11,4.6,3.411,M,11.40,M,30,2817*52
$GPGGA,082058.00,3116.7164066,N,12132.0856634,E,5,11,1.9,3.424,M,11.40,M,31,2817*54
$GPGGA,082059.00,3116.7167970,N,12132.0854012,E,5,09,1.5,3.508,M,11.40,M,32,2817*51
$GPGGA,082100.00,3116.7171946,N,12132.0851189,E,5,10,2.2,3.548,M,11.40,M,33,2817*51
$GPGGA,082101.00,3116.7175391,N,12132.0848623,E,5,10,2.4,3.558,M,11.40,M,34,2817*5B
$GPGGA,082102.00,3116.7178849,N,12132.0846399,E,5,10,2.6,3.510,M,11.40,M,35,2817*5E
$GPGGA,082103.00,3116.7182312,N,12132.0844002,E,5,08,1.7,3.512,M,11.40,M,36,2817*56
$GPGGA,082104.00,3116.7185985,N,12132.0840883,E,5,07,3.1,3.585,M,11.40,M,37,2817*53
$GPGGA,082105.00,3116.7189558,N,12132.0838039,E,5,09,5.1,3.431,M,11.40,M,38,2817*5D
$GPGGA,082106.00,3116.7193141,N,12132.0834064,E,5,10,4.6,3.548,M,11.40,M,39,2817*5D
$GPGGA,082107.00,3116.7195994,N,12132.0829990,E,5,09,2.3,3.629,M,11.40,M,40,2817*55
$GPGGA,082108.00,3116.7197973,N,12132.0825925,E,5,10,2.6,3.415,M,11.40,M,41,2817*52
$GPGGA,082109.00,3116.7198961,N,12132.0821082,E,5,11,4.5,3.403,M,11.40,M,42,2817*5F
$GPGGA,082110.00,3116.7198946,N,12132.0816176,E,5,10,4.5,3.374,M,11.40,M,43,2817*5B
$GPGGA,082111.00,3116.7197520,N,12132.0811135,E,5,08,2.1,3.372,M,11.40,M,44,2817*53
$GPGGA,082112.00,3116.7194597,N,12132.0805438,E,5,07,2.3,3.412,M,11.40,M,45,2817*5F
$GPGGA,082113.00,3116.7190002,N,12132.0801175,E,5,07,1.3,3.444,M,11.40,M,46,2817*58
$GPGGA,082114.00,3116.7184175,N,12132.0799199,E,5,10,1.6,3.506,M,11.40,M,47,2817*52
$GPGGA,082115.00,3116.7179011,N,12132.0799671,E,5,09,2.2,3.460,M,11.40,M,48,2817*52
$GPGGA,082116.00,3116.7174896,N,12132.0801433,E,5,09,1.4,3.456,M,11.40,M,49,2817*50
$GPGGA,082117.00,3116.7171312,N,12132.0804047,E,5,10,3.1,3.469,M,11.40,M,50,2817*5A
$GPGGA,082118.00,3116.7167460,N,12132.0806571,E,5,08,2.2,3.474,M,11.40,M,51,2817*54
$GPGGA,082119.00,3116.7163693,N,12132.0809702,E,5,09,1.6,3.417,M,11.40,M,52,2817*56
$GPGGA,082120.00,3116.7159925,N,12132.0812780,E,5,09,1.4,3.402,M,11.40,M,53,2817*50
$GPGGA,082121.00,3116.7155921,N,12132.0815899,E,5,09,3.2,3.402,M,11.40,M,54,2817*5A
$GPGGA,082122.00,3116.7151911,N,12132.0818832,E,5,09,1.6,3.395,M,11.40,M,55,2817*5C
$GPGGA,082123.00,3116.7147991,N,12132.0821330,E,5,09,1.5,3.382,M,11.40,M,56,2817*57
$GPGGA,082124.00,3116.7144093,N,12132.0824671,E,5,09,3.6,3.478,M,11.40,M,57,2817*5F
$GPGGA,082125.00,3116.7140343,N,12132.0827953,E,5,09,1.6,3.448,M,11.40,M,58,2817*56
$GPGGA,082126.00,3116.7136341,N,12132.0831200,E,5,11,3.1,3.444,M,11.40,M,01,2817*50
$GPGGA,082127.00,3116.7132390,N,12132.0834662,E,5,10,3.1,3.511,M,11.40,M,01,2817*5C
$GPGGA,082128.00,3116.7128443,N,12132.0838100,E,5,10,3.1,3.558,M,11.40,M,01,2817*53
$GPGGA,082129.00,3116.7123960,N,12132.0841119,E,5,09,1.4,3.648,M,11.40,M,02,2817*5D
$GPGGA,082130.00,3116.7119806,N,12132.0844663,E,5,09,3.1,3.670,M,11.40,M,03,2817*5F
$GPGGA,082131.00,3116.7115338,N,12132.0847415,E,5,09,3.1,3.748,M,11.40,M,04,2817*59
$GPGGA,082132.00,3116.7111081,N,12132.0850510,E,5,09,3.1,3.757,M,11.40,M,01,2817*56
$GPGGA,082133.00,3116.7107185,N,12132.0853350,E,5,10,3.1,3.717,M,11.40,M,01,2817*58
$GPGGA,082134.00,3116.7103421,N,12132.0856617,E,5,07,2.9,3.701,M,11.40,M,01,2817*5B
$GPGGA,082135.00,3116.7099494,N,12132.0859508,E,5,09,1.8,3.578,M,11.40,M,02,2817*57
$GPGGA,082136.00,3116.7095439,N,12132.0862402,E,5,10,2.2,3.624,M,11.40,M,03,2817*56
$GPGGA,082137.00,3116.7090910,N,12132.0864062,E,5,10,1.5,3.317,M,11.40,M,04,2817*56
$GPGGA,082138.00,3116.7086893,N,12132.0867183,E,5,09,3.2,3.402,M,11.40,M,05,2817*56
$GPGGA,082139.00,3116.7082372,N,12132.0870002,E,5,10,3.1,3.497,M,11.40,M,06,2817*5D
$GPGGA,082140.00,3116.7078083,N,12132.0873169,E,5,10,3.1,3.483,M,11.40,M,07,2817*50
$GPGGA,082141.00,3116.7073761,N,12132.0876278,E,5,10,2.3,3.316,M,11.40,M,08,2817*50
$GPGGA,082142.00,3116.7069388,N,12132.0879447,E,5,10,1.9,3.252,M,11.40,M,09,2817*57
$GPGGA,082143.00,3116.7065047,N,12132.0882693,E,5,12,2.1,3.249,M,11.40,M,10,2817*5E
$GPGGA,082144.00,3116.7060774,N,12132.0885399,E,5,11,2.2,3.324,M,11.40,M,11,2817*58
$GPGGA,082145.00,3116.7056397,N,12132.0888758,E,5,11,4.6,3.310,M,11.40,M,01,2817*55
$GPGGA,082146.00,3116.7052186,N,12132.0891819,E,5,10,9.8,3.315,M,11.40,M,02,2817*56
$GPGGA,082147.00,3116.7048056,N,12132.0894469,E,5,08,2.4,3.311,M,11.40,M,03,2817*55
$GPGGA,082148.00,3116.7044384,N,12132.0897552,E,5,06,3.5,3.302,M,11.40,M,04,2817*5B
$GPGGA,082149.00,3116.7040414,N,12132.0900586,E,5,09,9.9,3.269,M,11.40,M,05,2817*52
$GPGGA,082150.00,3116.7036657,N,12132.0903990,E,5,10,4.6,3.299,M,11.40,M,06,2817*50
$GPGGA,082151.00,3116.7032729,N,12132.0907251,E,5,10,9.9,3.229,M,11.40,M,07,2817*57
$GPGGA,082152.00,3116.7028096,N,12132.0910253,E,5,10,2.2,3.203,M,11.40,M,08,2817*5F
$GPGGA,082153.00,3116.7023432,N,12132.0913841,E,5,10,2.2,3.177,M,11.40,M,09,2817*54
$GPGGA,082154.00,3116.7019052,N,12132.0917188,E,5,10,1.8,3.079,M,11.40,M,10,2817*5E
$GPGGA,082155.00,3116.7014942,N,12132.0919930,E,5,10,2.2,3.270,M,11.40,M,11,2817*5C
$GPGGA,082156.00,3116.7011703,N,12132.0922396,E,5,11,1.5,3.291,M,11.40,M,12,2817*56
$GPGGA,082157.00,3116.7008434,N,12132.0924468,E,5,08,1.4,3.262,M,11.40,M,13,2817*5C
$GPGGA,082158.00,3116.7004801,N,12132.0927235,E,5,08,1.3,3.263,M,11.40,M,14,2817*59
$GPGGA,082159.00,3116.7001000,N,12132.0930208,E,5,09,2.1,3.235,M,11.40,M,15,2817*5E
$GPGGA,082200.00,3116.6996939,N,12132.0933427,E,5,10,1.9,3.218,M,11.40,M,16,2817*53
$GPGGA,082201.00,3116.6992481,N,12132.0936717,E,5,08,2.1,3.237,M,11.40,M,17,2817*53
$GPGGA,082202.00,3116.6988353,N,12132.0939915,E,5,09,2.0,3.150,M,11.40,M,18,2817*5D
$GPGGA,082203.00,3116.6984347,N,12132.0942883,E,5,09,2.0,3.076,M,11.40,M,19,2817*53$GPGGA,082204.00,3116.6980428,N,12132.0945674,E,5,08,2.3,3.034,M,11.40,M,20,2817*51
$GPGGA,082205.00,3116.6975952,N,12132.0948347,E,5,10,2.3,3.095,M,11.40,M,21,2817*51
$GPGGA,082206.00,3116.6971289,N,12132.0951614,E,5,08,2.3,3.138,M,11.40,M,22,2817*5C
$GPGGA,082207.00,3116.6966960,N,12132.0954578,E,5,08,2.0,3.156,M,11.40,M,23,2817*51
$GPGGA,082208.00,3116.6962673,N,12132.0957655,E,5,08,1.6,3.127,M,11.40,M,24,2817*5C
$GPGGA,082209.00,3116.6958295,N,12132.0961324,E,5,09,2.0,3.156,M,11.40,M,25,2817*5D
$GPGGA,082210.00,3116.6953682,N,12132.0964925,E,5,09,2.3,3.193,M,11.40,M,26,2817*5B
$GPGGA,082211.00,3116.6948854,N,12132.0968979,E,5,12,2.3,3.166,M,11.40,M,27,2817*51
$GPGGA,082212.00,3116.6943914,N,12132.0972825,E,5,11,1.6,3.257,M,11.40,M,28,2817*54
$GPGGA,082213.00,3116.6938719,N,12132.0976657,E,5,09,1.9,3.294,M,11.40,M,29,2817*5D
$GPGGA,082214.00,3116.6933540,N,12132.0980576,E,5,08,2.2,3.330,M,11.40,M,30,2817*58
$GPGGA,082215.00,3116.6928343,N,12132.0984433,E,5,08,2.3,3.399,M,11.40,M,31,2817*51
$GPGGA,082216.00,3116.6923064,N,12132.0988294,E,5,09,2.3,3.447,M,11.40,M,32,2817*5E
$GPGGA,082217.00,3116.6918437,N,12132.0991937,E,5,07,2.8,3.354,M,11.40,M,33,2817*5E
$GPGGA,082218.00,3116.6913533,N,12132.0995218,E,5,09,2.3,3.303,M,11.40,M,34,2817*5D
$GPGGA,082219.00,3116.6908849,N,12132.0998527,E,5,10,1.3,3.399,M,11.40,M,35,2817*59
$GPGGA,082220.00,3116.6904537,N,12132.1001845,E,5,08,1.3,3.474,M,11.40,M,01,2817*50
$GPGGA,082221.00,3116.6899709,N,12132.1004790,E,5,09,2.4,3.434,M,11.40,M,02,2817*5B
$GPGGA,082222.00,3116.6894836,N,12132.1008414,E,5,10,1.6,3.414,M,11.40,M,03,2817*5F
$GPGGA,082223.00,3116.6889918,N,12132.1011854,E,5,09,6.4,3.402,M,11.40,M,04,2817*52
$GPGGA,082224.00,3116.6885040,N,12132.1015683,E,5,10,3.6,3.427,M,11.40,M,05,2817*54
$GPGGA,082225.00,3116.6879922,N,12132.1019061,E,5,09,2.4,3.374,M,11.40,M,06,2817*54
$GPGGA,082226.00,3116.6874678,N,12132.1022845,E,5,11,2.3,3.357,M,11.40,M,07,2817*52$GPGGA,082227.00,3116.6869326,N,12132.1026741,E,5,09,2.1,3.408,M,11.40,M,08,2817*57
$GPGGA,082228.00,3116.6864002,N,12132.1030553,E,5,10,2.2,3.577,M,11.40,M,09,2817*55
$GPGGA,082229.00,3116.6858650,N,12132.1034315,E,5,09,9.7,3.496,M,11.40,M,10,2817*5A
$GPGGA,082230.00,3116.6852906,N,12132.1038105,E,5,10,2.1,3.563,M,11.40,M,11,2817*54
$GPGGA,082231.00,3116.6847747,N,12132.1042169,E,5,09,2.1,3.619,M,11.40,M,12,2817*58
$GPGGA,082232.00,3116.6843968,N,12132.1045316,E,5,08,2.1,3.641,M,11.40,M,13,2817*5C
$GPGGA,082233.00,3116.6840579,N,12132.1048182,E,5,08,1.9,3.598,M,11.40,M,14,2817*5B
$GPGGA,082234.00,3116.6837168,N,12132.1050697,E,5,11,1.4,3.637,M,11.40,M,15,2817*50
$GPGGA,082235.00,3116.6834428,N,12132.1052899,E,5,11,2.2,3.617,M,11.40,M,16,2817*55
$GPGGA,082236.00,3116.6832212,N,12132.1054868,E,5,11,2.2,3.419,M,11.40,M,17,2817*5A$GPGGA,082237.00,3116.6828886,N,12132.1057157,E,5,10,2.2,3.441,M,11.40,M,18,2817*52
$GPGGA,082238.00,3116.6825131,N,12132.1059597,E,5,10,1.9,3.457,M,11.40,M,19,2817*5D
$GPGGA,082239.00,3116.6821009,N,12132.1062301,E,5,10,1.9,3.494,M,11.40,M,20,2817*56$GPGGA,082240.00,3116.6816505,N,12132.1065134,E,5,09,1.9,3.496,M,11.40,M,21,2817*5D
$GPGGA,082241.00,3116.6811670,N,12132.1068412,E,5,10,1.9,3.482,M,11.40,M,22,2817*58
$GPGGA,082242.00,3116.6806704,N,12132.1072035,E,5,11,2.3,3.488,M,11.40,M,23,2817*56
$GPGGA,082243.00,3116.6802202,N,12132.1075885,E,5,11,4.7,3.463,M,11.40,M,24,2817*54
$GPGGA,082244.00,3116.6797987,N,12132.1079640,E,5,11,2.3,3.387,M,11.40,M,25,2817*53
$GPGGA,082245.00,3116.6793693,N,12132.1082987,E,5,12,3.1,3.416,M,11.40,M,26,2817*50
$GPGGA,082246.00,3116.6789148,N,12132.1086031,E,5,10,3.1,3.558,M,11.40,M,27,2817*51
$GPGGA,082247.00,3116.6784722,N,12132.1089751,E,5,10,2.5,3.488,M,11.40,M,28,2817*5F
$GPGGA,082248.00,3116.6779849,N,12132.1093669,E,5,11,2.5,3.490,M,11.40,M,29,2817*58
$GPGGA,082249.00,3116.6774565,N,12132.1097037,E,5,12,2.3,3.547,M,11.40,M,30,2817*58
$GPGGA,082250.00,3116.6769785,N,12132.1100252,E,5,10,2.3,3.582,M,11.40,M,31,2817*54
$GPGGA,082251.00,3116.6765681,N,12132.1103106,E,5,11,2.3,3.507,M,11.40,M,32,2817*52
$GPGGA,082252.00,3116.6761661,N,12132.1106210,E,5,12,2.3,3.462,M,11.40,M,33,2817*5A
$GPGGA,082253.00,3116.6757043,N,12132.1109645,E,5,12,2.3,3.475,M,11.40,M,34,2817*52
$GPGGA,082254.00,3116.6751784,N,12132.1112739,E,5,11,2.3,3.726,M,11.40,M,35,2817*58
$GPGGA,082255.00,3116.6747940,N,12132.1116059,E,5,12,2.3,3.519,M,11.40,M,36,2817*53
$GPGGA,082256.00,3116.6743698,N,12132.1119065,E,5,11,2.3,3.724,M,11.40,M,37,2817*50
$GPGGA,082257.00,3116.6739570,N,12132.1122716,E,5,10,2.3,3.684,M,11.40,M,38,2817*57
$GPGGA,082258.00,3116.6735306,N,12132.1126194,E,5,10,4.8,3.614,M,11.40,M,39,2817*5E
$GPGGA,082259.00,3116.6731132,N,12132.1129096,E,5,13,1.9,3.588,M,11.40,M,40,2817*5D
$GPGGA,082300.00,3116.6726624,N,12132.1131882,E,5,12,3.0,3.659,M,11.40,M,41,2817*56
$GPGGA,082301.00,3116.6721851,N,12132.1135410,E,5,12,3.0,3.662,M,11.40,M,42,2817*54$GPGGA,082302.00,3116.6717287,N,12132.1138712,E,5,12,3.0,3.609,M,11.40,M,43,2817*53
$GPGGA,082303.00,3116.6712862,N,12132.1142249,E,5,13,3.0,3.629,M,11.40,M,44,2817*54
$GPGGA,082304.00,3116.6708297,N,12132.1145657,E,5,14,3.0,3.704,M,11.40,M,01,2817*5C$GPGGA,082305.00,3116.6703935,N,12132.1149115,E,5,14,2.8,3.648,M,11.40,M,01,2817*58
$GPGGA,082306.00,3116.6699416,N,12132.1148900,E,2,07,2.8,2.373,M,11.40,M,02,2817*52
$GPGGA,082307.00,3116.6695499,N,12132.1155016,E,2,07,1.5,2.027,M,11.40,M,02,2817*56
$GPGGA,082308.00,3116.6691584,N,12132.1160657,E,2,07,2.8,1.994,M,11.40,M,01,2817*5A
$GPGGA,082309.00,3116.6683198,N,12132.1152395,E,2,06,3.0,6.924,M,11.40,M,01,2817*5F
$GPGGA,082310.00,3116.6683878,N,12132.1167142,E,5,13,1.9,3.798,M,11.40,M,02,2817*59
$GPGGA,082311.00,3116.6679524,N,12132.1170831,E,5,12,1.5,3.805,M,11.40,M,01,2817*57$GPGGA,082312.00,3116.6675329,N,12132.1174127,E,5,14,1.9,3.820,M,11.40,M,01,2817*54
$GPGGA,082313.00,3116.6670614,N,12132.1177434,E,5,14,1.4,3.852,M,11.40,M,01,2817*57
$GPGGA,082314.00,3116.6672593,N,12132.1177693,E,2,09,1.4,1.080,M,11.40,M,01,2817*5F
$GPGGA,082315.00,3116.6665631,N,12132.1181308,E,2,08,2.5,1.643,M,11.40,M,01,2817*57
$GPGGA,082316.00,3116.6662611,N,12132.1181659,E,2,10,1.5,2.080,M,11.40,M,01,2817*50
$GPGGA,082317.00,3116.6652125,N,12132.1191945,E,2,10,1.1,1.690,M,11.40,M,01,2817*51
$GPGGA,082318.00,3116.6646132,N,12132.1197993,E,2,11,1.1,2.159,M,11.40,M,01,2817*50
$GPGGA,082319.00,3116.6651386,N,12132.1189479,E,5,18,1.1,3.110,M,11.40,M,01,2817*5E
$GPGGA,082320.00,3116.6644711,N,12132.1193678,E,5,17,1.1,3.221,M,11.40,M,01,2817*5C
$GPGGA,082321.00,3116.6639924,N,12132.1195512,E,5,17,1.1,3.285,M,11.40,M,01,2817*58
$GPGGA,082322.00,3116.6635357,N,12132.1197763,E,5,17,1.1,3.202,M,11.40,M,01,2817*50
$GPGGA,082323.00,3116.6631984,N,12132.1199265,E,5,19,1.0,3.249,M,11.40,M,02,2817*5F$GPGGA,082324.00,3116.6628507,N,12132.1201618,E,5,18,1.0,3.235,M,11.40,M,03,2817*50
$GPGGA,082325.00,3116.6624647,N,12132.1204402,E,5,18,1.0,3.215,M,11.40,M,01,2817*56
$GPGGA,082326.00,3116.6621320,N,12132.1206798,E,5,18,1.0,3.239,M,11.40,M,01,2817*58
$GPGGA,082327.00,3116.6619032,N,12132.1207805,E,5,17,1.0,3.133,M,11.40,M,01,2817*5E
$GPGGA,082328.00,3116.6615952,N,12132.1209746,E,5,17,1.3,3.083,M,11.40,M,02,2817*5E$GPGGA,082329.00,3116.6613314,N,12132.1211677,E,5,17,1.3,3.118,M,11.40,M,01,2817*5B
$GPGGA,082330.00,3116.6610037,N,12132.1214304,E,5,17,1.0,3.097,M,11.40,M,01,2817*53$GPGGA,082331.00,3116.6606859,N,12132.1216639,E,5,15,1.1,3.143,M,11.40,M,01,2817*57
$GPGGA,082332.00,3116.6603709,N,12132.1218962,E,5,15,1.1,3.164,M,11.40,M,01,2817*51$GPGGA,082333.00,3116.6600537,N,12132.1221816,E,5,16,1.0,3.231,M,11.40,M,01,2817*55$GPGGA,082334.00,3116.6596831,N,12132.1224991,E,5,15,1.1,3.233,M,11.40,M,01,2817*5E$GPGGA,082335.00,3116.6592817,N,12132.1227784,E,5,16,1.1,3.236,M,11.40,M,02,2817*53
